,long,lat,City,Country,Temp,Humidity,Cloudiness,Wind (mph)
0,128.37975631100755,-64.32408907660667,new norfolk,au,45.96800000000002,70,100,2.19
1,59.195332166619096,-13.70243408384103,cap malheureux,mu,64.00399999999996,82,92,0.89
2,-84.25536073354165,-86.05452796865588,ushuaia,ar,35.599999999999966,80,75,10.3
3,9.199472330779113,29.32284310004617,nalut,ly,76.44199999999995,53,82,6.86
4,53.14029262096096,22.431181357758557,abu dhabi,ae,89.59999999999997,75,1,2.6
5,-77.61320444558744,73.31630253805594,qaanaaq,gl,24.656000000000006,83,0,1.69
6,154.06140286727637,-57.892462541070785,hobart,au,48.54199999999997,66,100,3.1
7,-85.11846828738818,-5.4283264562589695,talara,pe,76.99999999999994,61,37,6.7
8,-100.18931873122665,-6.92618101588629,puerto ayora,ec,72.58999999999997,57,20,7.7
9,-2.0770570023001866,-61.32401083467749,cape town,za,53.383999999999844,81,20,2.6
10,43.743903931345486,70.94477355159644,kamenka,ru,60.00799999999998,65,100,5.83
11,-31.03870059965155,32.24243833941344,ribeira grande,pt,67.99999999999994,52,40,4.1
12,-53.896641241472196,74.03171185278609,upernavik,gl,28.61599999999993,83,0,4.94
13,158.12995072678675,78.02752352119161,cherskiy,ru,39.05599999999998,85,99,2.19
14,-89.19385623942567,43.7233223810059,portage,us,67.18999999999988,42,1,2.1
15,-158.94168307437954,-41.99004997423422,avarua,ck,73.39999999999992,78,50,5.1
16,161.32698810742042,4.135276244529285,butaritari,ki,83.46199999999993,74,100,9.1
17,-152.15828762748376,-18.550379305803443,tevaitoa,pf,78.47600000000006,76,3,7.25
18,76.10590469221579,-62.37946890000503,saint-philippe,re,61.970000000000084,72,40,3.6
19,-48.73219203725896,53.48240917120067,bonavista,ca,56.91199999999998,56,63,5.48
20,-52.671572680145,-14.944182397686934,barra do garcas,br,100.39999999999992,19,40,5.1
21,-137.84736312141652,-32.73504166500899,rikitea,pf,73.50799999999998,72,0,2
22,-160.70241929867177,81.19288428236649,barrow,us,35.599999999999966,84,90,10.8
23,134.893241020254,-41.789326867090466,mount gambier,au,44.599999999999966,93,100,3.6
24,112.68797440986471,51.94524227872864,yablonovo,ru,60.80000000000001,72,2,5
25,20.607555341713123,-21.714927859019063,ghanzi,bw,72.10399999999998,20,68,3.86
26,-50.74945026495226,28.80935013445948,saint george,bm,88.07,12,1,1.15
27,-141.45347500687197,-9.266973344988283,atuona,pf,78.13399999999984,77,1,7.21
28,-30.71216939602801,15.289507348459653,porto novo,cv,73.39999999999992,94,40,2.1
29,103.86333766886654,51.00257806044252,bayangol,ru,34.322,91,88,0.82
30,-116.90656647039988,39.13569992862905,fallon,us,75.99200000000002,20,0,1.06
31,-55.20019791265347,-1.1412894806425378,obidos,br,98.72600000000006,27,100,2.36
32,3.7729015554772483,23.490374760429045,tessalit,ml,101.80399999999992,11,91,2.16
33,50.96045797706286,67.88019661654202,naryan-mar,ru,46.95799999999997,91,88,6.26
34,100.10741651250628,66.9430930357374,tura,ru,73.63399999999984,97,100,1.32
35,-104.5211832402396,65.60596824098349,yellowknife,ca,31.74799999999999,69,20,7.7
36,61.657522976467874,17.658481013400497,sur,om,82.39999999999992,62,100,4.55
37,-68.37135809067287,30.367222063540844,hamilton,bm,72.12200000000001,52,1,3.6
38,148.7593238355206,-20.011498565104457,bowen,au,66.19999999999999,88,75,4.1
39,157.71436131592748,0.08656424487344383,namatanai,pg,78.04400000000004,85,98,3.97
40,-151.83476665976707,-58.24142680724489,mataura,pf,42.99799999999999,80,98,5.36
41,122.86097539543961,-42.39754405210902,esperance,au,58.99999999999994,100,90,6.7
42,42.54499454012548,6.39360825308496,ginir,et,63.73399999999987,78,35,2.54
43,158.4485958429012,59.002540427414004,tigil,ru,44.87000000000006,94,100,3.37
44,35.3630476016954,-85.66625348764931,port elizabeth,za,58.99999999999994,77,43,5.1
45,-164.61727882877202,25.277638599770402,kapaa,us,81.01399999999995,74,20,4.6
46,92.26355955135917,-60.76499295963351,busselton,au,50.97199999999998,78,43,5.1
47,169.8120081790618,-82.39547155714114,bluff,nz,42.99799999999999,80,100,5.36
48,136.5000560909812,42.737892365748685,olga,ru,56.156000000000006,92,0,1.99
49,-30.7144226357855,-59.308824476195944,chuy,uy,58.37000000000006,65,0,4.47
50,-101.2613970591099,61.49739549887544,thompson,ca,48.19999999999999,66,75,4.6
51,120.96923629488512,-40.23748243051425,albany,au,61.627999999999986,45,0,0.9
52,87.02886034616493,-32.718031270681514,carnarvon,au,66.19999999999999,100,0,6.2
53,44.29529075257259,-21.122021990490314,morondava,mg,75.21800000000002,84,8,6.72
54,-174.78783058909391,-67.97307276522501,vaini,to,71.59999999999997,83,40,5.1
55,63.26968974762577,57.77172066252244,irbit,ru,49.622000000000014,93,100,5.21
56,-29.314226239277417,25.301267687953434,ponta do sol,cv,70.71800000000002,73,20,1.5
57,-24.34765894215971,11.86538221200405,sao filipe,cv,80.20400000000001,80,58,4.19
58,-106.1630452627913,53.475469616995106,shellbrook,ca,49.99999999999994,76,90,3.6
59,31.315640931632437,20.470345510383858,marawi,sd,75.00200000000001,92,100,2.24
60,-99.17703766009853,20.466086181322673,ixmiquilpan,mx,66.92000000000002,74,93,3.77
61,145.8553673527919,37.21956760615771,kamaishi,jp,65.786,83,99,1.24
62,-108.77129133425348,3.2972033212950946,ixtapa,mx,87.00799999999998,74,75,4.1
63,95.86991503409233,-8.32700949605184,bengkulu,id,74.73199999999991,91,43,1.95
64,109.11986696665703,38.38770306987903,dongsheng,cn,46.561999999999955,53,0,4.1
65,6.355762257429753,-15.552830994755373,namibe,ao,62.83399999999989,81,8,4.58
66,177.72969126134822,-63.52567496430572,kaitangata,nz,44.99599999999998,53,3,1.79
67,-61.90103588566254,61.568863901583946,pangnirtung,ca,40.99999999999994,60,75,4.1
68,-97.65630919833413,-76.35453030021263,punta arenas,cl,40.99999999999994,56,20,10.8
69,-139.22966845338945,82.09354904808922,tuktoyaktuk,ca,31.999999999999943,88,90,5.1
70,5.205944392669082,-64.84813308678746,hermanus,za,46.00399999999996,89,9,3.58
71,-78.3876765560836,10.539432394888426,nargana,pa,84.18199999999996,75,100,2.14
72,26.6607486932368,53.78078022061409,dzerzhinsk,by,48.19999999999999,81,20,5
73,-6.2287729031956784,-23.91577071048463,jamestown,sh,62.023999999999944,47,1,2.6
74,-117.81534271713441,46.00769006904951,walla walla,us,71.11399999999998,34,90,1.5
75,49.1912820227997,35.97699496268155,abhar,ir,57.829999999999984,79,0,2.94
76,-91.51618072471054,29.785346076297625,morgan city,us,85.44199999999995,70,75,4.6
77,-111.50325259203879,31.001907488529945,altar,mx,94.99999999999994,36,0,2.24
78,18.451481003575786,85.41238147689056,longyearbyen,sj,33.799999999999955,69,40,1.5
79,-5.035283235736032,72.35995524805293,klaksvik,fo,48.19999999999999,93,42,0.5
80,-21.907137010842813,56.45487371447552,vestmannaeyjar,is,48.19999999999999,70,16,5.1
81,-158.37606509627875,54.21121492731235,kodiak,us,53.599999999999966,81,90,7.2
82,-159.17673811595114,-1.2246830960241262,faanui,pf,77.75600000000003,78,0,7.63
83,39.654089962712135,-72.83694996505024,port alfred,za,60.22399999999999,73,100,5.84
84,-7.346142702437031,80.05955371117345,husavik,is,49.99999999999994,71,90,2.6
85,119.75960026600691,66.4838922733124,verkhnevilyuysk,ru,42.52999999999997,96,2,1.55
86,74.9257702496773,-53.87111216598144,souillac,mu,64.39999999999992,88,75,2.1
87,14.93304929687369,-70.13723456085648,bredasdorp,za,49.99999999999994,87,8,1.5
88,23.035575937117446,63.97348545545082,kokkola,fi,46.202,93,99,1.5
89,-47.63792081591034,4.476377870992721,amapa,br,95.16199999999998,33,25,2.15
90,82.9296281589434,-41.100288694616765,bambous virieux,mu,64.22000000000008,88,75,2.1
91,169.98775205997737,-28.640733671749473,vao,nc,68.52199999999999,74,19,9.12
92,82.47415998769532,83.91915817541773,dikson,ru,44.329999999999984,94,100,11.42
93,-103.8685128454782,-55.49234592082192,castro,cl,73.25600000000003,53,57,3.47
94,-33.44116582398171,-39.81033576646292,arraial do cabo,br,76.99999999999994,73,40,6.2
95,6.5778860229539715,2.9732491711193076,abonnema,ng,76.71199999999993,88,100,3.5
96,176.53882440671345,61.71816208512942,beringovskiy,ru,46.72399999999993,92,100,4.56
97,162.13295616237093,-12.050137200013333,kirakira,sb,79.5739999999999,84,100,7.76
98,89.43461407699253,11.019691048311453,port blair,in,82.36399999999998,77,100,5.48
99,-61.5055374929641,-5.294226082805242,manicore,br,100.52600000000012,24,100,1.64
100,26.77262781540273,-13.899737164178072,kasempa,zm,70.30399999999992,39,34,1.38
101,-4.79632346591754,57.26427104948256,drumnadrochit,gb,58.69400000000002,87,75,5.1
102,-124.90473886352405,24.392598035439683,san quintin,mx,83.67800000000005,42,0,4.4
103,133.69289187871257,62.21731533297849,churapcha,ru,37.02199999999999,94,0,1.78
104,-125.10154823512103,56.04286377108457,fort saint james,ca,59.287999999999954,52,0,1.51
105,-66.69503423685524,80.72650525681314,narsaq,gl,51.799999999999955,40,75,3.6
106,140.51864745875247,38.582797453490834,obanazawa,jp,64.90399999999994,88,64,0.88
107,167.21860928116283,80.21872571298992,pevek,ru,40.74799999999999,88,93,1.5
108,27.620652979478,-68.60423736114892,kruisfontein,za,55.99399999999997,81,2,0.89
109,-165.44443994671687,55.30990417909879,bethel,us,64.50799999999998,55,0,0.89
110,-46.238938333228475,-19.924288603956064,campos altos,br,84.32600000000008,23,0,3.57
111,88.78483330907432,64.70297407079465,turukhansk,ru,49.82000000000005,81,71,4.23
112,-18.51215787189824,-74.15601678547057,mar del plata,ar,64.39999999999992,34,0,8.2
113,-34.03670102978842,-47.68444264883105,cidreira,br,60.20599999999996,70,100,9.63
114,171.32139299440078,30.781632163547666,nikolskoye,ru,49.42399999999992,87,98,1
115,-42.97366019127331,-31.432064845770558,laguna,br,77.23399999999987,49,1,1.5
116,55.37906797991863,-79.32922337348127,east london,za,60.80000000000001,72,40,4.1
117,161.09240739627703,47.36511721374496,severo-kurilsk,ru,51.11599999999993,85,57,5.88
118,5.156877177985564,-38.65559301150539,saldanha,za,51.799999999999955,66,0,1.5
119,4.9565002858808604,14.78049417249233,tahoua,ne,93.19999999999999,52,10,3.53
120,-23.27104015781536,-24.747381199858932,caravelas,br,78.67399999999992,70,0,3.58
121,-137.5462988048866,37.14473225951615,fortuna,us,75.19999999999999,49,1,2.1
122,129.71215173731025,-34.739022444359314,flinders,au,56.551999999999964,88,1,0.45
123,-67.50971496194987,12.081750058009034,kralendijk,an,87.80000000000001,79,0,6.2
124,77.81124448152721,-3.235101665248208,hithadhoo,mv,81.536,70,77,2.81
125,-35.341015419797195,-0.42460378658431,aquiraz,br,84.19999999999999,58,65,9.8
126,172.82224522757522,-13.45255572809898,sola,vu,78.63799999999998,78,100,12.85
127,-59.34427490885705,-38.87446855841347,necochea,ar,66.99200000000002,37,0,6.26
128,45.50715180168725,12.8545029793662,aden,ye,90.69800000000004,61,24,1.83
129,121.06681646421127,10.131511960827499,suba,ph,82.52600000000012,79,100,7.26
130,-43.003525069591994,-11.096822902193914,utinga,br,83.156,65,40,6.7
131,65.02494559362614,-29.220421169398136,mahebourg,mu,64.39999999999992,88,75,2.1
132,-40.65935821832349,72.42603478675001,tasiilaq,gl,33.799999999999955,86,90,14.4
133,-146.60254994089107,32.44259105432147,kahului,us,79.46599999999995,54,40,2.6
134,-69.34160846929043,53.68358086728852,port-cartier,ca,51.367999999999995,57,20,6.7
135,-125.04757470861236,26.522218256510012,lompoc,us,60.349999999999966,87,90,1.5
136,115.21912251778026,25.848520515801386,ganzhou,cn,70.87999999999994,94,100,1.24
137,152.18256057611768,-22.85971443529634,gladstone,au,62.599999999999966,82,62,2.6
138,141.6365960390278,-20.48114991358988,mount isa,au,69.80000000000001,30,0,2.1
139,-13.920442961740441,45.47633602254623,muros,es,68.44999999999999,83,71,2.24
140,132.3186810102904,3.487137193337231,kloulklubed,pw,76.99999999999994,94,75,4.36
141,-18.33858571989213,-10.207097820377475,georgetown,sh,78.40399999999994,88,20,1.83
142,117.42050475367523,70.76110366668105,saskylakh,ru,44.09599999999995,79,32,2.43
143,-75.12291008618335,13.302003929626027,santa marta,co,91.39999999999992,66,75,3.1
144,23.556164225541142,2.747936333561296,aketi,cd,72.12200000000001,97,100,0.3
145,23.613632502956893,18.196266530547188,kutum,sd,79.48399999999987,40,0,5.23
146,63.11224574594798,30.44473272156224,rudbar,af,70.16000000000003,22,0,3.34
147,-71.5829717260482,-11.793098736726515,pangoa,pe,70.55599999999998,93,87,0.34
148,34.44176968408381,-0.7847166395145488,homa bay,ke,69.80000000000001,77,75,3.1
149,47.346610673049504,69.50308339760358,mezen,ru,45.428000000000054,86,100,3.99
150,-89.00677609944995,-28.34186907879339,coquimbo,cl,55.39999999999992,76,90,4.6
151,-63.06371986052655,0.9676718237331072,barcelos,br,68.70200000000006,77,94,1
152,64.48998983789458,14.519988170456777,mangrol,in,81.58999999999997,79,100,2.28
153,-94.18857091552543,20.040312217038824,pajapan,mx,87.80000000000001,70,40,2.1
154,80.83628238222292,54.8489475964521,chulym,ru,55.03999999999991,66,100,4.57
155,87.29925658052926,68.40479133870751,snezhnogorsk,ru,40.99999999999994,93,75,1
156,159.8533279573058,-3.4620036154668243,buala,sb,80.92399999999992,79,100,5.79
157,175.05459281434696,-11.808685546395992,asau,tv,66.97399999999999,64,98,2.1
158,35.325957625841276,64.4440220258456,belomorsk,ru,43.988,93,0,2.56
159,141.05521200431747,-13.049187429851516,nhulunbuy,au,73.39999999999992,88,40,2.1
160,123.09854221631834,65.87278772448613,zhigansk,ru,41.287999999999954,89,0,3.39
161,-42.480592380445415,-4.915005962702801,altos,br,98.59999999999997,23,100,3.6
162,177.5885428270075,77.563305076784,leningradskiy,ru,38.894000000000005,92,100,4.86
163,77.86864233359078,15.8440208105595,alampur,in,76.37000000000006,88,98,3.63
164,32.036613681131975,24.316105830380096,aswan,eg,92.44400000000002,16,0,4.49
165,-31.258878096808118,51.173578834205756,lagoa,pt,65.55199999999996,63,2,7.99
166,144.06324475560274,-32.914685584964545,mildura,au,44.599999999999966,75,56,3.69
167,125.05023800993655,41.62807341197453,huanren,cn,59.738,90,90,2.53
168,-64.72392638698959,10.232830400828997,barcelona,ve,76.74799999999999,78,20,2.6
169,-11.566107342203757,55.39043341531384,westport,ie,64.02199999999999,48,1,3.6
170,33.731774330832145,36.37231586445476,silifke,tr,82.868,51,0,2.27
171,-97.11628387734828,46.842757541719635,west fargo,us,66.97399999999999,72,1,2.6
172,138.17299950372453,9.719117232049113,airai,pw,53.617999999999995,87,5,1.38
173,152.90910104295656,80.4986806525872,chokurdakh,ru,38.10200000000003,89,100,3.67
174,-89.6753556452741,24.257884497270453,progreso,mx,93.344,63,75,2.6
175,70.55880594652237,74.34376789446546,yar-sale,ru,51.42199999999997,89,100,2.66
176,-58.40844864053416,20.58642771456417,codrington,ag,43.37600000000009,90,100,3.65
177,-67.68341243542213,71.04224052792317,clyde river,ca,35.599999999999966,80,90,3.1
178,-134.8137180523772,62.1390771547137,whitehorse,ca,44.94199999999995,56,75,6.7
179,113.63009455141253,33.60800897448571,pingdingshan,cn,69.87200000000001,71,1,2.13
180,133.29714343828758,-2.73652312809356,manokwari,id,81.93199999999996,69,100,2.77
181,124.09397272923933,-4.041448129771363,kendari,id,69.72800000000001,91,15,1.41
182,173.71510574468905,-28.42309313249112,kaeo,nz,51.99799999999999,3,8,2.68
183,-65.64632782975019,-34.07740018026934,mercedes,ar,61.339999999999975,49,100,0.89
184,-127.34594656460007,61.98837073305613,norman wells,ca,40.99999999999994,65,20,6.2
185,-49.19363303694659,-21.6417038302652,borborema,br,94.55000000000001,20,7,3.08
186,115.81175952362115,-27.44133619231216,geraldton,au,60.80000000000001,87,75,2.6
187,-53.434818664087146,19.933644996817858,saint-francois,gp,78.47600000000006,44,17,1
188,84.61340483479248,1.3906286221028075,hambantota,lk,78.80000000000001,100,75,4.6
189,-21.179906205621002,25.18032007265886,los llanos de aridane,es,73.88600000000002,83,20,4.1
190,44.576204944971366,2.318490548621299,wanlaweyn,so,77.666,77,0,7.51
191,-59.24227529759738,-1.090190331612173,urucara,br,99.1760000000001,28,100,1.53
192,86.04777892579001,35.75304502063753,korla,cn,73.99399999999997,63,0,0.89
193,-15.749037881808947,19.102924095183006,nouakchott,mr,87.80000000000001,74,0,5.7
194,33.56094161611149,-13.316462537854667,mponela,mw,70.7899999999999,38,6,3.08
195,-146.16656522775068,20.715558854593585,hilo,us,76.53199999999998,65,1,2.1
196,81.30932241296588,33.89974293719854,leh,in,53.689999999999884,36,0,2.12
197,-119.2471836587455,1.6457303767331344,san patricio,mx,85.99999999999994,74,75,7.7
198,139.12717585727907,29.520004385673783,shimoda,jp,67.99999999999994,95,100,0.45
199,-116.84046511441808,57.77257110846069,high level,ca,48.19999999999999,58,40,5.7
200,-51.41021478021983,62.11702622440441,paamiut,gl,45.98600000000005,73,100,16.84
201,85.73982611813015,58.740012548055354,belyy yar,ru,39.19999999999999,93,79,0.84
202,131.4555209256933,75.30794818889711,tiksi,ru,36.44599999999997,92,0,0.54
203,138.4808862072797,-32.239654192457856,port augusta,au,48.50600000000003,81,100,3.6
204,164.16215624045682,60.42849448106272,ossora,ru,43.448000000000036,76,100,2.24
205,-70.63670317921233,-33.77463334382714,buin,cl,62.52800000000008,52,100,2.6
206,-5.931570422101551,15.892770866177052,sokolo,ml,93.63199999999989,34,0,1.64
207,126.93357108338692,54.23038476454626,zeya,ru,48.75799999999998,88,0,0.5
208,-57.63817708744965,15.421542474346895,bathsheba,bb,89.59999999999997,66,75,7.7
209,-58.5275251783967,52.24195380851854,saint-augustin,ca,54.75200000000001,41,94,8.94
210,51.54284607790582,-23.395763420043046,manakara,mg,69.9260000000001,81,100,3.75
211,22.70561890433733,10.672234405204117,birao,cf,74.98399999999987,86,80,1.34
212,146.23512182863797,56.850975369030465,okhotsk,ru,47.678000000000054,59,70,5.44
213,94.78878751453979,77.19724102077109,khatanga,ru,48.43399999999991,87,100,2.35
214,120.84776991394655,0.645690706282076,palu,id,75.488,79,100,1.04
215,108.42375427407089,19.31879619434128,lingao,cn,80.23999999999995,83,99,1.34
216,43.760946651701424,-9.006783720066991,mitsamiouli,km,76.99999999999994,73,20,2.1
217,-26.69116026830722,59.131116231161975,grindavik,is,44.599999999999966,75,75,3.1
218,-33.953033673732655,-25.334262881811064,sao joao da barra,br,80.59999999999997,61,64,8.7
219,12.140184510716544,62.730320538906135,roros,no,51.799999999999955,100,100,2.1
220,37.44278207490155,33.17353534036746,yabrud,sy,85.99999999999994,35,0,4.1
221,-156.7386194475406,23.6560023894295,kailua,us,79.77199999999999,61,20,4.1
222,-9.5808504952263,69.61719691658847,hofn,is,50.773999999999944,61,0,2.44
223,126.68164402501951,20.645315836977584,hirara,jp,83.57,79,99,4.83
224,-95.48542702012111,38.8731848200241,topeka,us,80.16799999999995,57,1,3.29
225,97.59214989602627,10.180231002992912,ranong,th,80.04199999999997,82,97,3.27
226,-71.92899055892438,-44.35629604679088,coihaique,cl,49.99999999999994,37,40,2.6
227,-142.55910523853476,41.310385777798274,sitka,us,53.599999999999966,71,1,3.1
228,-12.329212866832883,28.65224999758257,arrecife,es,75.19999999999999,73,20,4.6
229,169.22529685857765,65.40556230310136,bilibino,ru,37.6339999999999,82,97,1.35
230,137.08132057789888,-36.605069833108594,victor harbor,au,53.00600000000003,89,100,3.18
231,98.28243326612653,1.0019082395565482,sibolga,id,75.95599999999996,79,83,1.54
232,-107.9293970754429,48.803081088265934,shaunavon,ca,64.166,34,84,4.24
233,55.37856296320906,-6.691782607012109,victoria,sc,82.02199999999999,92,5,1.34
234,82.87336534403929,5.7162295176152895,wattegama,lk,78.80000000000001,100,75,4.6
235,127.63281070444006,-5.462001608604017,ambon,id,75.19999999999999,94,40,2.1
236,27.19641688956529,81.64006182379998,mehamn,no,40.99999999999994,93,40,4.1
237,30.626993653508826,0.049179838459600944,ibanda,ug,75.19999999999999,69,20,3.6
238,120.34928432839422,-24.037289978647447,port hedland,au,69.80000000000001,68,100,2.6
239,165.932851985605,-15.253279008750752,luganville,vu,76.99999999999994,73,75,3.6
240,-45.62281991182127,37.04059231524403,torbay,ca,58.622000000000014,51,90,8.2
241,150.2370333414285,-24.708575550832713,biloela,au,55.886000000000024,90,0,3.94
242,30.061229566359838,64.3593931503314,kostomuksha,ru,42.1339999999999,86,56,1.67
243,-66.92752770808742,-20.376807365656425,uyuni,bo,49.981999999999914,52,100,8.17
244,4.989039069955337,-23.35825258845208,henties bay,na,55.00399999999996,86,0,3.13
245,157.29056268265748,60.25580721019291,evensk,ru,39.398000000000025,77,71,1.4
246,77.10342338378824,38.265224373500985,shache,cn,62.815999999999974,34,0,3.21
247,65.00290814475271,61.36348583813886,kommunisticheskiy,ru,49.82000000000005,96,100,2.21
248,-9.471768136236669,67.05955387796975,vestmanna,fo,48.19999999999999,93,12,0.5
249,36.006342467838536,85.49914548059778,vardo,no,42.799999999999955,93,82,2.6
250,-63.76919698226524,56.253573238145,havre-saint-pierre,ca,49.99999999999994,71,1,12.3
251,-81.41357964051788,28.882605700999907,deltona,us,85.47800000000001,66,1,3.1
252,134.94546052048742,32.790791028413565,muroto,jp,76.33399999999989,77,100,1.88
253,-175.67664848483727,47.93810061043876,provideniya,ru,45.96800000000002,90,92,5.23
254,-67.90786146966563,-21.536152144720145,calama,cl,69.80000000000001,11,0,11.3
255,-94.29222423411474,8.064836110960993,champerico,gt,81.80599999999998,70,75,2.1
256,99.60210371744627,53.77068307208243,shumskiy,ru,44.20399999999995,90,100,1.43
257,12.16786595977981,9.554162994068083,numan,ng,76.92800000000005,87,99,0.73
258,5.813979082703824,36.79726421639467,constantine,dz,75.19999999999999,53,40,4.6
259,138.74013627126124,40.304743908343724,oga,jp,58.99999999999994,87,81,2.1
260,-60.27597624772181,15.841448860213337,grand-bourg,gp,88.68199999999996,74,20,4.6
261,71.15334036181584,22.451052824523565,chotila,in,81.87799999999999,94,20,1.5
262,0.49926123729790994,7.717474486802622,badou,tg,73.868,88,96,0.58
263,-97.76929145477949,-24.906244679389488,pisco,pe,66.10999999999996,77,20,5.1
264,32.26113963157176,62.05653940475614,suoyarvi,ru,43.37600000000009,89,0,2.07
265,76.03609253367438,2.4355731731462327,muli,mv,82.20200000000006,79,100,4.96
266,-66.62885676082723,-46.868069367060706,comodoro rivadavia,ar,55.39999999999992,37,40,3.6
267,12.163082137987914,27.53728032409456,awbari,ly,83.49799999999999,23,3,4.46
268,-46.35838274818498,10.375779896812364,cayenne,gf,89.59999999999997,62,29,2.1
269,-56.457662875020944,62.07701165409677,maniitsoq,gl,43.78999999999991,84,100,8.29
270,-84.99159037515668,-3.566129400634932,el alto,pe,76.99999999999994,61,47,6.7
271,-66.0556965599497,10.356998228697012,guatire,ve,87.80000000000001,79,20,2.6
272,32.094080449239534,70.02206478055678,pechenga,ru,46.39999999999998,81,75,1.5
273,125.92422373620839,-12.147000329080548,soe,id,60.18799999999993,100,33,1.78
274,131.7654534125351,-0.9365720325807625,sorong,id,77.72000000000008,89,100,4.63
275,-61.112938556702524,-39.48543846595462,punta alta,ar,67.65799999999996,37,72,6.81
276,-59.22939052728735,24.961330946709193,the valley,ai,87.96199999999993,70,20,6.7
277,-99.19169592187791,33.92376359796104,vernon,us,70.87999999999994,46,20,3.1
278,-17.88621004960249,8.437100725871115,bubaque,gw,81.08600000000007,83,62,6.34
279,13.737934558895649,49.28800988080907,strakonice,cz,63.37399999999997,90,8,2.13
280,133.66020199775696,49.993418225460765,chegdomyn,ru,48.686000000000035,94,19,0.34
281,-107.30198666668925,47.2323777523347,miles city,us,64.39999999999992,52,1,2.1
282,-126.56443285985377,36.11971047795347,pacifica,us,65.69599999999997,60,20,6.2
283,34.82614561693558,-30.547568066336773,richards bay,za,65.49799999999999,72,100,2.5
284,22.365256935445444,8.813293640756214,ouadda,cf,68.81,93,54,1.05
285,117.57489968029924,41.190325196195154,chengde,cn,52.03399999999988,80,0,3.75
286,79.31781196453997,29.20667093776036,haldwani,in,78.26000000000005,71,93,1.57
287,46.64332715311603,5.71661320964324,hobyo,so,77.81,83,0,11.45
288,155.4492735694127,14.529836759381542,kavieng,pg,82.20200000000006,77,97,6.62
289,33.50844546222118,53.146605638145935,zhiryatino,ru,59.377999999999986,90,98,2.37
290,-4.597620051668905,10.29730525433875,banfora,bf,78.70999999999998,83,3,1.61
291,13.910202319892196,2.6324938283739496,sembe,cg,73.22000000000008,90,33,0.65
292,-165.05803825618955,8.125236699512218,makakilo city,us,79.214,65,1,2.1
293,-47.139374982333536,15.436550586054143,sinnamary,gf,84.54199999999997,71,93,3.25
294,21.89358375996917,-12.610124678746605,lumeje,ao,74.83999999999997,54,54,2.36
295,133.49121606735724,-21.03525094805545,alice springs,au,69.80000000000001,28,90,3.72
296,130.35100922441353,-42.292808801933035,port lincoln,au,55.561999999999955,69,100,3.85
297,120.3912008046556,-2.8589964821733704,rantepao,id,65.73199999999991,87,99,0.39
298,63.382299934412266,57.31986541705921,pyshma,ru,49.82000000000005,92,100,6.58
299,27.042207315307266,23.637105276662684,tahta,eg,88.73600000000005,25,0,3.6
300,-171.68965386267791,72.14776204073335,lavrentiya,ru,43.952,96,100,4.38
301,-70.06603752344209,-32.9274066746027,los andes,cl,67.99999999999994,99,17,1.34
302,138.95882357486153,51.001857731577296,vysokogornyy,ru,51.45799999999997,92,84,0.54
303,-103.67581877980237,43.87583257222612,rapid city,us,79.77199999999999,26,1,4.1
304,46.82429685671787,53.992196850214114,glotovka,ru,44.329999999999984,90,28,3.66
305,21.775260919532148,57.794065581644624,ventspils,lv,58.99999999999994,93,100,1
306,120.4677629636581,-29.63544196475789,northam,au,60.67399999999992,97,0,1.79
307,-69.09595570832079,-28.13424668293574,copiapo,cl,60.80000000000001,63,40,4.1
308,165.28537844416212,-36.293779830171566,ahipara,nz,55.70599999999996,80,25,5.03
309,-53.8985716393944,-2.657500925847822,monte alegre,br,97.64600000000002,30,93,1.21
310,-25.225543613721825,39.750335383182325,rabo de peixe,pt,67.99999999999994,56,20,5.1
311,146.06800830764993,47.59599270589548,novikovo,ru,59.53999999999991,86,1,3.81
312,-57.82001055778119,-9.233069078153589,alta floresta,br,98.59999999999997,18,51,4.1
313,129.2535878314118,6.41735126870574,san isidro,ph,64.39999999999992,72,90,3.6
314,-98.67220240540398,-29.38380118095303,lebu,cl,53.87000000000006,84,100,4.85
315,8.459338746543477,56.79569197500213,hurup,dk,60.00799999999998,36,0,2.69
316,36.5577285220058,26.721562399518184,tabuk,sa,74.10200000000003,87,100,0.54
317,-114.36551764543314,17.4785980677424,cabo san lucas,mx,89.18599999999998,66,20,3.6
318,-117.00005656113319,36.36941146476712,ridgecrest,us,90.96800000000002,12,0,1.9
319,-92.53248501852255,22.69214884676166,celestun,mx,86.93599999999998,69,38,5.7
320,-101.91637970171503,13.388315280950758,acapulco,mx,84.19999999999999,83,75,3.1
321,-68.47344055455346,65.72006186820745,iqaluit,ca,41.50399999999996,75,75,4.1
322,-55.22400857919274,2.226414281057598,grand-santi,gf,93.488,44,98,0.87
323,109.42137073870384,-10.539123981590537,bambanglipuro,id,72.42800000000005,89,6,0.84
324,-85.5335902160501,-6.569033627437726,paita,pe,76.99999999999994,61,7,6.7
325,164.33751493639514,-26.73529778826338,noumea,nc,62.599999999999966,77,68,0.5
326,-45.85830102864368,57.98356755860713,nanortalik,gl,42.70999999999998,87,100,9.87
327,91.5585546177806,-5.953885860534813,padang,id,77.75600000000003,77,94,1.5
328,63.908438684505086,48.98378055126001,derzhavinsk,kz,51.33199999999994,56,26,9.3
329,50.89927448878744,67.22787272116953,ust-tsilma,ru,46.61599999999993,94,84,2.84
330,104.93437261681471,0.24376235068652718,kijang,id,71.59999999999997,78,75,1.5
331,108.04791322443121,-3.6375877540692825,manggar,id,78.78199999999998,82,79,2.89
332,-31.463729307996967,-2.115324714051059,touros,br,82.39999999999992,65,40,6.7
333,-6.0676926809522636,44.54042332706864,aviles,es,69.80000000000001,88,40,2.1
334,-53.33186487689967,47.57751859740379,bay roberts,ca,58.801999999999964,54,85,5.21
335,-57.07481701641124,-19.190544740907622,ladario,br,85.99999999999994,42,0,2.6
336,2.203499001558007,67.94945065926883,raudeberg,no,55.99399999999997,96,100,7.1
337,110.36957485846696,23.84180086017712,jinji,cn,77.21599999999995,92,6,1.13
338,156.41376427368786,-36.009028543953136,nelson bay,au,57.93799999999993,93,10,2.6
339,143.6658085114633,26.804825409358347,katsuura,jp,72.58999999999997,94,75,3.6
340,76.72872096172874,18.943418586384542,gangakher,in,76.92800000000005,87,100,2.99
341,64.78505032369195,8.732587132341397,kavaratti,in,81.464,82,52,7.92
342,-78.39434502509388,46.29606191400829,mattawa,ca,68.98999999999995,68,90,1.5
343,93.29566301915568,69.70234305848956,talnakh,ru,55.39999999999992,71,99,6
344,26.150023844000337,58.367907961998874,puhja,ee,53.94199999999995,100,90,1
345,27.15408841865703,14.192355616266939,umm kaddadah,sd,93.43399999999991,32,0,3.91
346,-109.3495079419367,5.5529364062662845,lazaro cardenas,mx,84.05599999999998,74,51,1.49
347,64.20530521322488,42.51885390303912,nurota,uz,69.80000000000001,19,0,5.1
348,-40.5782139039353,6.3147374933035465,cururupu,br,86.07199999999995,57,47,3.14
349,-55.720430113574835,-29.74846255077098,alegrete,br,58.28000000000003,76,100,4.21
350,19.520557267312675,-30.882335735873077,calvinia,za,46.867999999999995,67,0,3.13
351,-17.048257907981657,38.28455728639676,camacha,pt,73.39999999999992,73,40,2.1
352,30.385907300670013,-30.786888239961353,margate,za,71.99599999999992,72,35,0.45
353,-85.41833189465336,32.04409370878155,eufaula,us,82.00399999999996,85,100,6.19
354,-146.55649261478865,64.05218913669245,fairbanks,us,50.12600000000009,76,75,2.6
355,-43.17921351032796,-7.05893448871201,floriano,br,98.09599999999995,23,39,3.91
356,143.4452631915174,-26.9341539072667,roma,au,63.22999999999996,39,1,1.17
357,-143.8887584673883,59.23462352553647,palmer,us,65.17399999999992,36,40,2.6
358,5.607979762003135,64.02502830217817,roald,no,52.48399999999987,93,75,8.7
359,-47.02571803727152,68.6350167020772,ilulissat,gl,46.39999999999998,45,75,7.7
360,143.82105879311882,33.930594839300554,hasaki,jp,67.24399999999997,100,40,3.1
361,20.49734902932576,20.059501497895226,faya,td,68.89999999999992,82,61,2.1
362,56.05054128360811,7.787123616937364,bandarbeyla,so,80.20400000000001,71,0,11.39
363,103.88095263021128,51.11548292121716,baykalsk,ru,49.18999999999994,74,100,3.65
364,-82.54838768957903,2.9808051385021517,muisne,ec,84.19999999999999,79,75,4.1
365,122.41659264348878,-12.090443140977802,kupang,id,72.464,81,49,3.68
366,30.855212178979908,-16.102855527055272,luangwa,zm,81.19400000000002,27,63,1.04
367,-42.71690376501773,-18.95834789153176,acucena,br,84.81199999999995,35,0,1.94
368,-60.99634982453785,1.572418689161592,boa vista,br,84.19999999999999,70,75,6.2
369,-65.58507930871656,19.636633100283106,loiza,us,88.10600000000005,70,40,8.2
370,42.48273519949623,80.41446234776592,ostrovnoy,ru,43.97000000000003,78,99,6.23
371,175.74896775408197,-19.460509274188787,isangel,vu,66.19999999999999,93,75,6.73
372,-120.4656311558292,64.66190778403342,hay river,ca,39.19999999999999,48,75,4.1
373,-128.87392046891839,42.9683011113814,north bend,us,74.96599999999995,64,75,4.1
374,46.36074540177828,16.072082396996855,sayyan,ye,68.16199999999998,32,56,2.21
375,167.746551908262,-15.895378712207908,lakatoro,vu,76.99999999999994,73,75,3.6
376,-53.866011000305036,56.79506626073317,saint anthony,ca,77.72000000000008,47,1,5.1
377,45.98811896372534,60.991836563880305,udimskiy,ru,44.906000000000006,95,94,3.87
378,20.039909351909536,66.3726196396749,kiruna,se,39.19999999999999,93,100,0.5
379,20.701533048090436,27.16050901962227,awjilah,ly,93.45200000000006,19,85,6.76
380,27.48492685966133,-25.05388138019716,mogwase,za,71.54599999999999,21,93,1.96
381,-68.16348090942743,-37.6165682270703,neuquen,ar,67.99999999999994,34,100,5.1
382,133.76845926147445,-11.938000959951346,maningrida,au,69.58399999999989,85,0,4.03
383,101.00672964943172,16.132893941606962,nong phai,th,76.35200000000003,92,95,1.56
384,141.02191574414388,-40.75858583642532,portland,au,70.286,58,100,2.37
385,114.01473639450852,14.296401587888663,qui nhon,vn,79.142,84,100,2.53
386,73.30744711054543,44.28110306616871,shu,kz,68.3239999999999,25,35,3.83
387,112.27884552272786,-8.166934644144341,kanigoro,id,68.61199999999991,88,98,0.7
388,0.2744316328513685,2.3895438410078684,mumford,gh,75.82999999999998,87,100,6.67
389,-87.53690648605647,0.6359963285518799,san cristobal,ec,91.39999999999992,46,40,5.1
390,6.864337576325896,73.15458255640611,sorland,no,44.599999999999966,93,75,0.5
391,-63.049011386761514,8.516422660098177,ciudad guayana,ve,87.60200000000003,64,72,2.93
392,15.338417000754578,-5.494855341634686,mbanza-ngungu,cd,80.40199999999999,54,93,3.92
393,110.40472563317685,5.978568306710685,bintulu,my,75.09199999999993,94,40,1.5
394,-116.9022272490869,26.827337749557,guerrero negro,mx,87.78199999999998,30,0,4.42
395,129.02900606897043,-17.44462366607116,kununurra,au,71.59999999999997,73,100,1.5
396,3.4398599963787024,-29.640396447871986,luderitz,na,56.515999999999906,70,0,7.92
397,95.91971654903585,26.091026549147422,khonsa,in,68.84599999999995,96,99,0.8
398,107.32540031119184,2.222971871828938,pemangkat,id,77.14400000000006,88,100,2.81
399,-26.428548624766535,-7.961766041752282,pitimbu,br,84.19999999999999,62,40,7.2
400,111.5758519364986,28.699261617752125,changde,cn,67.82,96,100,1.05
401,125.69430888665065,7.920543739399233,gupitan,ph,74.89400000000006,88,100,2.2
402,54.961511651646134,49.58194141391553,sol-iletsk,ru,51.20600000000002,69,96,4.91
403,85.39450995815352,15.667571384353318,yarada,in,82.39999999999992,94,75,1
404,-59.03149751841929,-27.57243662545329,resistencia,ar,72.64400000000006,31,100,3.1
405,144.92877279288837,-15.931600034547122,mareeba,au,65.73199999999991,83,75,5.1
406,114.28286337697983,-5.7400231278938785,sumenep,id,78.72800000000001,68,0,3.58
407,10.031365186156528,6.972065670583039,wum,cm,66.23600000000005,97,100,0.47
408,-123.22785277536764,60.580162511647714,fort nelson,ca,48.19999999999999,61,75,3.6
409,131.67685608085827,59.64911315141735,amga,ru,39.613999999999976,93,74,1.12
410,157.58822544151673,-21.853835699124737,hervey bay,au,62.00600000000003,88,0,1.34
411,150.9921730072114,57.73663801659473,magadan,ru,45.787999999999954,74,41,2.98
412,-100.35268258433125,43.00486016275881,pierre,us,82.52600000000012,32,1,2.74
413,157.81676580991555,-54.59741861626135,tuatapere,nz,44.00600000000003,79,100,6.71
414,-91.12080308503558,36.38968424164312,jonesboro,us,82.25600000000003,58,1,5.1
415,80.05935679120822,48.17061127945607,ayagoz,kz,59.35999999999996,50,65,4.62
416,146.58719239432963,49.745664160556316,vostok,ru,49.099999999999966,95,100,0.68
417,56.23209768031974,-13.65058014454984,antalaha,mg,67.83800000000002,84,16,4.23
418,19.18119768727411,50.85480430909096,czestochowa,pl,67.18999999999988,87,0,0.5
419,160.51148455579394,50.351819664487486,petropavlovsk-kamchatskiy,ru,44.599999999999966,81,97,2
420,78.55373013289235,15.471760251505396,nandyal,in,76.406,88,100,1.07
421,146.6039636416992,0.24539904373268584,lorengau,pg,81.85999999999996,76,100,3.4
422,-51.96658219633474,-2.9084696175685765,senador jose porfirio,br,95.97200000000004,36,93,0.94
423,107.05193582742443,-9.875933079137244,banjar,id,80.59999999999997,94,40,4.1
424,-169.11075473434528,57.355166142972145,nome,us,49.06400000000002,76,90,9.8
425,6.2223113917572626,5.778986444290213,ughelli,ng,75.52399999999994,91,100,2.35
426,27.11845648559359,-12.559848992169131,chingola,zm,71.67199999999997,35,55,0.97
427,155.3907341108464,59.399820754241205,dukat,ru,32.738,94,99,1.16
428,102.73215612522651,30.002501298224292,yaan,cn,74.96599999999995,92,62,1.3
429,-116.67042079521299,35.04233625874701,barstow,us,90.68,14,1,3.1
430,-67.2760308687951,-5.895862378842809,carauari,br,95.72000000000008,39,98,0.65
431,74.47082532243272,69.96667508828138,pangody,ru,52.322,80,100,5.72
432,156.3115059892292,-5.42679482372781,kieta,pg,76.04599999999999,90,100,5.75
433,123.7360414029806,29.194061975605045,shenjiamen,cn,78.02600000000012,91,100,6.42
434,155.4641653565468,75.04718711480093,srednekolymsk,ru,42.170000000000016,87,100,3.27
435,101.07915068606965,17.022371182200967,nakhon thai,th,75.88399999999984,87,100,0.57
436,30.460281702135926,48.15158559338389,kryve ozero,ua,68.52199999999999,59,0,2.04
437,-177.7369068310358,62.456180243471756,egvekinot,ru,41.648000000000025,87,99,7.71
438,-99.13743358663443,38.143315094126706,great bend,us,79.86199999999991,44,1,3.6
439,46.10968016072887,65.21037397387516,leshukonskoye,ru,44.77999999999997,91,97,4.3
440,-67.34451984169223,38.58922105117822,nantucket,us,62.34800000000001,52,1,5.1
441,8.740750760937832,66.85334475700641,sistranda,no,49.99999999999994,87,75,2.6
442,179.18786921986015,-50.011216984867346,christchurch,nz,36.44599999999997,74,0,1
443,38.74639230239969,52.649578533085375,donskoye,ru,66.19999999999999,37,0,3
444,13.83398479629565,-1.2272576988951456,lekoni,ga,77.036,78,100,2.92
445,-65.2596698888457,38.322374448326165,shelburne,ca,66.30799999999994,49,20,6.7
446,-70.44245510024206,-14.540718619238069,nunoa,pe,55.38199999999989,41,82,1.6
