,long,lat,City,Country,Temp,Humidity,Cloudiness,Wind (mph)
0,100.96531651213067,-38.56350685190009,busselton,au,47.065999999999974,80,92,2.04
1,-15.076400406158431,34.814122641863996,camacha,pt,71.59999999999997,73,40,6.2
2,-146.7384499420114,-58.4222381473952,mataura,pf,49.99999999999994,63,90,0.45
3,-4.978009757586732,4.4301394805971945,grand-lahou,ci,75.14600000000002,88,80,4.32
4,-42.474356390640786,65.08605405433546,tasiilaq,gl,33.799999999999955,95,100,1
5,43.34190902170858,69.29691607919992,kamenka,ru,60.476000000000056,49,31,4.86
6,-57.98188746077593,75.49978393825269,upernavik,gl,34.75399999999996,95,100,6.44
7,164.00421975639466,-64.94000062055723,bluff,nz,49.99999999999994,63,67,0.45
8,37.731841773495375,-13.575440357647128,montepuez,mz,67.406,72,50,3.16
9,170.52518523468933,12.16858987562025,butaritari,ki,82.57999999999998,77,85,7.89
10,8.423904073197619,70.096236129667,sorland,no,48.57800000000003,71,96,9.48
11,131.35798737777716,-32.512436850591406,flinders,au,62.995999999999924,69,46,1.79
12,140.8652492162672,-30.012515993312327,broken hill,au,62.599999999999966,55,83,10.8
13,-58.30525148089507,0.2189582624505415,urucara,br,77.55799999999994,79,67,0.33
14,-104.38472291709841,-14.443035763037848,puerto ayora,ec,67.99999999999994,88,73,2.24
15,28.879183114608264,3.733778181463998,watsa,cd,63.49999999999994,100,36,0.48
16,40.42161932370012,69.81428771302235,ostrovnoy,ru,43.19599999999997,88,13,2.15
17,-127.51401482346274,25.499926506762083,lompoc,us,61.537999999999954,87,90,2.6
18,107.66211392138312,-56.50530102635209,albany,au,72.22999999999996,91,45,1.2
19,-106.59511252807627,19.611892549263953,tomatlan,mx,82.47200000000004,77,41,0.87
20,159.4054347541849,-22.651124033113167,poum,nc,71.95999999999998,69,0,2.09
21,-85.9675519993356,22.11138891097931,isla mujeres,mx,82.18399999999991,78,75,1.5
22,-108.16725433409844,27.033565420660764,choix,mx,89.13199999999989,60,6,2.43
23,-31.920185484571096,8.53241033938591,sao filipe,cv,80.06,83,100,5.38
24,172.5967881079612,-24.867192629815115,vao,nc,67.63999999999993,70,64,6.67
25,-83.22234194360787,8.350414111447801,golfito,cr,77.594,88,94,1.19
26,-23.15551902140951,-4.927675532256592,georgetown,sh,77.62999999999994,94,40,2.1
27,174.0355170940763,47.504860864862664,nikolskoye,ru,52.50200000000001,71,75,9
28,142.52362648947562,60.93248543354265,okhotsk,ru,55.74200000000002,49,4,3.54
29,-124.20710843835245,49.64243472363202,parksville,ca,84.99200000000002,38,0,0.89
30,64.22827433244767,18.00890476440894,dwarka,in,81.28399999999993,78,93,4.32
31,-89.80345511956355,83.04210599379937,qaanaaq,gl,25.231999999999914,88,100,3.94
32,98.22232070565778,31.847667673127887,tezu,in,75.86599999999993,86,98,1.04
33,-120.12002235296721,-61.839848491474704,rikitea,pf,73.59800000000001,83,100,7.22
34,0.8006032273880859,26.10947560929403,adrar,dz,98.00600000000003,16,92,2.65
35,17.78026759906448,58.45751207772912,nynashamn,se,47.33600000000001,75,38,1.72
36,-70.24548848619385,73.55171317631785,clyde river,ca,35.599999999999966,80,90,1.5
37,-112.87693529096539,12.497493962923711,san patricio,mx,87.80000000000001,74,75,4.1
38,-142.58783898916846,38.485781606869764,fortuna,us,63.122000000000014,77,1,2.1
39,149.74987538632638,-75.79612269163368,hobart,au,53.92399999999992,62,75,4.1
40,-172.04846743093444,-85.66568692972183,vaini,to,76.99999999999994,83,75,4.6
41,-149.41863224154707,46.974779729029116,kodiak,us,62.599999999999966,39,1,4.6
42,-120.95577266621196,79.87187441631022,norman wells,ca,48.19999999999999,93,90,4.6
43,-26.648759680736678,47.085515213589716,lagoa,pt,71.95999999999998,84,0,3.26
44,78.95354019233596,62.060937826713435,strezhevoy,ru,51.799999999999955,93,84,2
45,127.25709217134799,35.45826840310765,seoul,kr,70.52000000000004,73,1,2.42
46,142.65691202062,15.288511868130083,airai,pw,68.16199999999998,53,64,2.15
47,-133.84585576353948,78.34372549306808,tuktoyaktuk,ca,39.19999999999999,80,90,5.7
48,-12.808145788411407,7.286492153147128,bonthe,sl,75.92000000000002,92,100,5.85
49,-54.33396314204406,-70.13979961870785,ushuaia,ar,46.39999999999998,85,75,5.7
50,-42.07043918715443,76.22761953558893,ilulissat,gl,33.799999999999955,69,9,1.96
51,138.3476354092211,24.33427153678028,shingu,jp,82.39999999999992,74,75,3.6
52,119.95580573189424,-7.37611855789474,ruteng,id,69.60200000000003,76,78,1.13
53,-130.21463376746743,53.50794472616872,prince rupert,ca,62.599999999999966,82,1,2.6
54,34.820919507324554,42.27251654875893,sinop,tr,60.15199999999999,76,0,2.02
55,10.912422060604854,-6.357317232299664,soyo,ao,73.12999999999994,85,45,2.98
56,-37.97533941614901,37.77384253914352,ribeira grande,pt,71.83399999999989,84,5,2.44
57,-149.6373868073021,63.53732741447834,wasilla,us,55.579999999999984,47,1,2.1
58,29.717284101453313,-10.675207133258013,luwingu,zm,54.62600000000003,50,37,2.22
59,169.49042442477224,-35.22830368535269,ahipara,nz,57.57800000000003,62,41,6.04
60,131.86908277514294,-44.63933516254006,port lincoln,au,67.72999999999996,57,94,3.81
61,-84.23427668743855,-57.07344434137542,punta arenas,cl,42.40399999999994,75,75,6.2
62,123.36373247159587,62.161031758349694,kysyl-syr,ru,49.964,87,100,1.88
63,-173.9707189080008,10.564395993219577,kapaa,us,84.63199999999989,55,1,7.2
64,77.03147906797636,35.6301629676263,kargil,in,48.64999999999998,51,0,2.13
65,-20.295496238586086,-32.347671468050386,jamestown,sh,66.344,93,90,2.6
66,79.40598113023289,-57.15473406609013,mahebourg,mu,71.59999999999997,73,75,6.7
67,-143.55855076370676,-20.735928179740338,tautira,pf,82.39999999999992,61,75,2.6
68,-95.16119817214928,-52.82574098675023,castro,cl,68.82800000000003,57,56,1.24
69,25.713139421818433,75.89473568382793,honningsvag,no,48.99199999999996,79,68,6.54
70,-45.68624541273651,-19.174686577437516,abaete,br,76.62200000000001,25,6,1.28
71,94.9159824701921,-22.336606611862166,carnarvon,au,62.599999999999966,77,0,5.1
72,11.352371412626683,-84.93508115781664,hermanus,za,58.99999999999994,90,100,3.13
73,-59.434987171583956,-36.728510751765185,azul,ar,64.39999999999992,68,90,2.1
74,17.595199920248916,-8.225069576659417,malanje,ao,67.406,64,25,2.27
75,56.16644815719061,0.9933254154197213,victoria,sc,84.66799999999995,74,99,3.19
76,154.11234076162222,84.31501163558937,chokurdakh,ru,50.95399999999995,55,31,3.01
77,-158.21823883579904,18.366427851741463,lahaina,us,84.95599999999996,45,20,11.3
78,175.1674677911835,-59.6293329982325,kaitangata,nz,48.99199999999996,52,96,1.34
79,-70.25267197438563,9.33075892789078,trujillo,ve,60.53000000000003,85,36,2.75
80,-62.89685597842063,-16.301963065382097,san javier,bo,70.844,82,0,2.6
81,-20.455306834748765,-44.928107907470086,arraial do cabo,br,72.84199999999993,79,10,12.5
82,-42.78441756974145,-58.84764092410724,mar del plata,ar,54.71599999999995,81,90,2.6
83,175.89445097917275,-44.151802232868846,waipawa,nz,48.05599999999998,81,77,11.3
84,-86.48345590368059,43.504067362310664,muskegon,us,55.12999999999994,93,75,1.5
85,-152.7650525298164,87.97977681189609,barrow,us,39.19999999999999,86,90,8.7
86,-51.104161820926365,-0.24624360300872228,mazagao,br,84.19999999999999,74,20,5.7
87,73.91569924696834,86.29991158777077,dikson,ru,44.45600000000002,99,100,9.19
88,109.8817899895679,-16.88417580141173,karratha,au,84.21800000000002,31,0,7.84
89,129.66707352932596,-65.60317962102728,new norfolk,au,52.807999999999936,62,94,0.45
90,-66.60259549209866,41.324071755827006,yarmouth,ca,73.59800000000001,100,75,3.1
91,-176.92423289310827,66.10671089023617,egvekinot,ru,44.68999999999994,74,94,2.38
92,26.24011130616879,24.9350244031317,asyut,eg,76.99999999999994,53,0,2.1
93,-116.16285098563269,-4.507878600709292,atuona,pf,78.80000000000001,77,3,7.65
94,132.19594083724868,15.805525245805308,san policarpo,ph,81.66199999999998,77,20,2.15
95,20.657087259486563,-71.46690534818218,bredasdorp,za,57.19999999999999,93,100,6.7
96,130.76902482096585,-25.862262145006166,yulara,au,75.19999999999999,23,0,2.1
97,-107.39175037651071,87.4735828759997,yellowknife,ca,51.58399999999989,66,75,5.1
98,-25.17794676431151,23.457425295039393,ponta do sol,cv,71.45599999999996,69,75,2.6
99,-126.20535000440486,32.134050205281405,pacific grove,us,59.34199999999993,93,30,0.89
100,53.717849582526945,-24.40858213791356,saint-pierre,re,64.29199999999997,82,90,2.1
101,-148.98367660475694,69.78241444867136,college,us,43.286,65,75,5.1
102,-59.7691082556163,50.030767743264505,saint-augustin,ca,48.95600000000002,89,100,0.89
103,-132.99071093423967,62.260669420660875,whitehorse,ca,53.23999999999995,54,75,2.1
104,18.335214887627018,36.73200834265467,siderno,it,75.77600000000012,83,5,3.1
105,123.51654255908622,38.281824265486705,zhuanghe,cn,69.17000000000002,84,3,6.83
106,-113.23945442344119,-0.5495026523068214,coahuayana,mx,75.19999999999999,83,75,5.1
107,-86.42720622700193,27.451607544424718,panama city,us,78.67399999999992,83,40,2.1
108,134.40531391497765,-52.09694830688078,portland,au,77.738,27,90,3.1
109,-23.787023969063448,26.879248433355464,los llanos de aridane,es,73.39999999999992,83,99,6.2
110,47.18949361769982,48.25806439399448,nizhniy baskunchak,ru,62.54599999999999,45,0,3.42
111,-163.77118409836885,-62.483786900594595,avarua,ck,76.99999999999994,83,97,7.7
112,-134.39421291004678,64.77651589355199,mayo,ca,77.46800000000002,100,90,2.19
113,89.82855265160403,-9.613938760870443,padang,id,76.58600000000007,71,99,1.94
114,-44.23164148506258,34.226156297164266,torbay,ca,58.495999999999924,82,90,5.1
115,-165.0193660161915,43.71600810267516,bethel,us,73.00399999999996,97,100,1.73
116,109.94738814016173,17.7147653131566,wanning,cn,83.47999999999996,81,88,4.27
117,49.61621691568594,42.29424961338416,xudat,az,64.77800000000008,62,0,1.28
118,68.94979210221443,17.814748306478013,veraval,in,80.09599999999995,85,95,4.28
119,151.91034768192046,0.38950155803125774,kavieng,pg,85.47800000000001,65,22,3.71
120,-177.59493829967718,-18.700950935741833,pangai,to,78.80000000000001,78,75,1
121,106.19876000950946,-15.083814638454939,kawalu,id,72.87799999999999,81,82,0.95
122,-94.33554228113398,-31.02916596868621,lebu,cl,48.452,77,29,6.25
123,-174.41263401297633,66.70924114963074,provideniya,ru,48.19999999999999,87,90,2
124,-62.76473629489616,11.730138008138702,gouyave,gd,82.39999999999992,78,20,2.6
125,-47.49728632981751,-13.609114612010432,cavalcante,br,73.48999999999995,26,10,2.1
126,-128.68474854547875,56.944712624933224,terrace,ca,76.99999999999994,47,20,0.54
127,10.91854960615013,-44.65393030497478,cape town,za,58.58600000000007,93,100,1
128,-1.5876665101367982,70.29843204580712,klaksvik,fo,49.99999999999994,100,95,4.1
129,31.302620082640665,77.22621905700707,berlevag,no,47.20999999999998,80,3,3.18
130,77.64349476344383,-1.3534676839819904,hithadhoo,mv,81.66199999999998,77,92,5.54
131,-87.56534645785096,53.84999590294387,geraldton,ca,49.99999999999994,87,90,3.6
132,-98.89188507706798,69.48043534036726,thompson,ca,53.599999999999966,68,20,5.1
133,47.09695996425343,53.79023149246266,barysh,ru,57.23600000000005,61,75,6.13
134,20.556674035070554,61.00861726634387,uusikaupunki,fi,49.99999999999994,76,53,2.6
135,-47.34040454967155,-26.7574519166931,porto belo,br,67.08199999999994,88,75,2.6
136,28.186569916061565,-70.87034461053518,kruisfontein,za,60.00799999999998,91,99,0.89
137,157.4319969564392,49.530654268203634,severo-kurilsk,ru,52.231999999999914,76,100,1.47
138,104.12490293944481,19.496396739621304,xam nua,la,70.50200000000001,81,100,0.76
139,20.698989719709825,28.783401873574743,awjilah,ly,74.04800000000006,74,0,4.23
140,71.65274117410425,-25.81396346706717,bambous virieux,mu,71.78000000000003,73,75,6.7
141,70.58447353246254,73.20995433566088,yar-sale,ru,54.283999999999935,78,41,8.19
142,-118.07679163533318,26.028700306179797,guerrero negro,mx,82.95799999999991,48,0,7.14
143,127.1536369059285,15.254240163638489,gigmoto,ph,83.22800000000001,78,92,3.35
144,-62.54761136914,84.25862518153636,narsaq,gl,42.799999999999955,22,1,5.1
145,156.72946237767815,28.01138546192957,hasaki,jp,83.55199999999996,83,75,2.6
146,68.52992621100682,-39.97673693846403,souillac,mu,71.59999999999997,73,75,6.7
147,67.97724368161838,0.451530032541958,thinadhoo,mv,81.58999999999997,79,90,6.43
148,57.35801651634451,-89.34006462066395,port alfred,za,63.33800000000002,85,92,8.63
149,29.00899898042406,86.36068832763534,mehamn,no,46.75999999999999,81,44,2.74
150,-99.72590282532163,50.62051825663333,minnedosa,ca,76.99999999999994,29,40,5.1
151,-73.72895522026238,-33.092219819977885,valparaiso,cl,57.79400000000004,93,0,1.5
152,150.63507870772537,50.23727094822787,vostok,ru,50.84599999999995,99,100,1.3
153,123.8630347100614,1.8564607363729668,manado,id,76.99999999999994,94,20,1
154,140.74821514657148,20.57213085884203,naze,jp,79.71800000000002,94,75,0.5
155,57.61655001884731,40.76887017171399,akdepe,tm,61.68199999999996,48,0,4.1
156,56.01417077794275,31.129832749673724,zarand,ir,60.133999999999844,31,8,1.2
157,-26.606821191970155,-3.5579846884299937,nisia floresta,br,76.13600000000002,83,40,5.7
158,131.03955233589605,-50.16895887742088,mount gambier,au,60.80000000000001,63,90,4.6
159,-71.33480537700709,49.977144505572014,saint-ambroise,ca,48.398000000000025,87,75,3.1
160,-169.03246091023746,-21.94445230669435,alofi,nu,82.39999999999992,83,40,4.1
161,120.12503660821861,7.842260464312578,simbahan,ph,83.47999999999996,72,88,2.26
162,30.275312172053614,-12.524476305650357,serenje,zm,53.56400000000002,58,6,2.98
163,0.9862795892701115,-2.95744194826133,port-gentil,ga,76.99999999999994,83,20,5.09
164,60.856065066964305,62.48673790787597,polunochnoye,ru,43.610000000000014,99,63,2.43
165,23.46960254256054,58.035240368901455,virtsu,ee,53.00600000000003,73,41,3.13
166,-115.3312650910681,34.078213229989686,twentynine palms,us,86.30599999999998,8,1,1.78
167,-19.811890717725156,2.185461075992412,goderich,sl,57.95599999999996,82,99,6.35
168,-15.48869646087021,11.073104491277686,catio,gw,77.08999999999997,91,100,1.57
169,103.12386961967393,26.995384959492817,zhaotong,cn,59.12600000000003,89,100,1.02
170,94.11880965066042,6.285307607063173,sabang,id,81.68,77,100,9.16
171,-55.23434077192122,-12.903260546579553,diamantino,br,88.52000000000004,20,37,2.44
172,15.922738608032638,83.17085114585228,longyearbyen,sj,44.599999999999966,75,75,7.2
173,-14.459955476635656,38.0169520712302,colares,pt,69.80000000000001,28,60,4.92
174,61.92291317810723,35.051479806018385,herat,af,56.372000000000014,35,0,4.07
175,-67.77970311908024,66.84169773755887,pangnirtung,ca,36.21199999999993,78,41,1.91
176,-9.09358909002982,72.3770818859459,hofn,is,48.307999999999936,86,97,1.19
177,-3.054861275753451,49.08355623791872,lannion,fr,55.39999999999992,93,40,2.1
178,-111.97315604176,40.50323128466612,riverton,us,67.91000000000003,22,1,5.1
179,36.393509457658865,55.99543207958507,novopetrovskoye,ru,48.19999999999999,81,12,6
180,92.22610545176913,68.60926691761435,talnakh,ru,49.99999999999994,100,40,5
181,93.20799551423534,41.30843744709293,hami,cn,65.20999999999998,33,78,11.51
182,16.764180691084608,-12.635776955860267,kuito,ao,55.41799999999995,36,4,1.21
183,-64.63962908882488,-48.42343978503336,comodoro rivadavia,ar,55.39999999999992,46,83,12.9
184,68.45068542499202,58.39349756874487,tobolsk,ru,48.28999999999991,76,100,3.62
185,-46.74034453596472,6.828899309728853,saint-georges,gf,82.39999999999992,78,20,2.6
186,-87.72589999367939,9.0483927858781,santa cruz,cr,82.39999999999992,58,0,2.6
187,46.96729804734512,32.422252106089324,dehloran,ir,89.85200000000003,12,0,3.14
188,173.55630298099928,-32.99297238935115,kaeo,nz,62.995999999999924,3,3,2.68
189,163.55342637054042,80.44223710762192,cherskiy,ru,49.27999999999997,61,51,1.8
190,-108.68090014070471,58.21787182941417,meadow lake,ca,55.47200000000004,62,75,2.6
191,-45.105959489817636,6.29768504634508,amapa,br,78.34999999999997,67,55,2.33
192,36.65927822489559,-86.53275568100328,port elizabeth,za,60.80000000000001,93,90,5.7
193,50.268436980562406,16.782674334697013,salalah,om,78.80000000000001,83,90,2.6
194,-50.220448963667216,24.6051840428103,codrington,ag,58.99999999999994,60,96,5.36
195,-18.251848641890668,65.9227146172925,dalvik,is,46.39999999999998,93,90,3.6
196,54.96089571410645,30.482648441715142,shahr-e babak,ir,61.26799999999997,32,20,1.58
197,-68.92631017146462,-12.30640173930535,puerto maldonado,pe,83.58800000000002,43,17,1.29
198,-89.17234679243826,-15.898901465705894,huarmey,pe,60.9260000000001,83,5,3.31
199,-85.57450008763374,37.27981584684922,campbellsville,us,82.094,65,40,1.5
200,-71.74956876601699,-46.9664561662797,coihaique,cl,40.99999999999994,65,40,1.5
201,118.78394904066487,-29.68881328082845,northam,au,49.33399999999989,89,74,1.34
202,69.45767886763703,34.79872695799456,tagab,af,60.80000000000001,38,1,2.53
203,36.277418569290695,66.78685480231,lovozero,ru,38.55200000000002,82,18,1.51
204,-153.26684547141411,24.260804626856082,kahului,us,82.72399999999999,52,40,11.8
205,37.785265009119165,59.59035123993864,cherepovets,ru,49.99999999999994,87,90,6
206,35.215580312622684,78.76897617775046,vardo,no,48.488,79,86,3.51
207,42.81396444003136,33.089332511124944,hit,iq,83.73199999999991,21,0,1.76
208,-15.320758543920277,13.307536393335095,farafenni,gm,78.43999999999988,90,70,2.94
209,-109.31096614645304,49.51028536062358,maple creek,ca,74.47999999999996,27,0,5.02
210,-22.731462222385,16.989660315455403,santa maria,cv,64.39999999999992,88,0,1.5
211,103.23937670305996,87.70717022681082,khatanga,ru,46.436000000000035,81,100,4.78
212,10.763323173936335,-22.517507607169485,henties bay,na,60.00799999999998,83,0,2.52
213,94.8175477645316,34.192408693368115,lasa,cn,55.39999999999992,100,40,0.9
214,97.04240093492815,22.18867570372781,maymyo,mm,80.59999999999997,83,40,3.1
215,-73.49804062006915,46.988463267153655,saint-michel-des-saints,ca,46.70600000000002,91,97,1.37
216,-16.400998676761258,1.0009415689468226,mattru,sl,73.31,97,100,2.46
217,28.187905340928122,7.912136598241892,waw,sd,70.55599999999998,95,72,1.29
218,62.22881193231704,65.88868878180375,verkhnyaya inta,ru,46.561999999999955,88,42,3.66
219,124.47101539633272,-34.517495736832096,esperance,au,49.99999999999994,100,90,2.6
220,19.110440714226495,7.647337445790992,kabo,cf,71.16799999999995,97,99,0.68
221,22.0357810605355,-28.832639446642293,upington,za,64.39999999999992,20,0,2.6
222,120.7535752660984,15.085464881965994,santo domingo,ph,82.93999999999988,74,75,2.1
223,-89.22673527834594,19.56257060997514,tzucacab,mx,87.29599999999999,60,56,2.83
224,98.80109590964213,14.469030050982978,dawei,mm,78.02600000000012,85,99,1.12
225,48.20512376455899,16.59833609080771,sayyan,ye,63.66199999999998,55,1,0.51
226,82.97256870314882,0.41600804190354834,hambantota,lk,78.83600000000007,82,94,7.15
227,42.381215088105925,15.589020504576034,bajil,ye,91.11199999999991,50,0,0.85
228,100.45483543544991,13.286159992515156,samut sakhon,th,78.09800000000001,83,100,0.92
229,132.5634775332922,53.48192091161986,tokur,ru,51.96199999999993,54,0,0.78
230,-94.91984778540949,39.77974919886679,saint joseph,us,55.633999999999844,87,90,5.1
231,29.575298492216916,16.575597158011345,marawi,sd,78.00799999999998,83,38,2.68
232,-1.1279465848797576,-38.268168364047824,saldanha,za,55.39999999999992,82,79,2.1
233,151.14467806563866,-17.62039737482095,bowen,au,73.39999999999992,60,40,6.7
234,-82.98405933565179,-27.227567990224067,coquimbo,cl,55.39999999999992,82,0,5.1
235,-68.59948300403404,-11.189131957983477,cobija,bo,89.59999999999997,62,14,0.87
236,95.15912439182495,-12.491560096438182,bengkulu,id,75.344,84,100,1.27
237,38.9677758343989,-51.80872026059934,east london,za,64.868,77,96,5.6
238,-106.51662078366813,-41.67483401953295,ancud,cl,46.00399999999996,78,100,0.89
239,151.73681753558756,-13.422594882733897,samarai,pg,76.01000000000005,81,65,6.54
240,175.9237561832034,-32.85077401232134,russell,nz,82.76000000000005,66,20,3.1
241,106.65777876032931,15.212914083283168,saravan,la,71.59999999999997,40,20,4.1
242,32.68779701826665,44.8103617261283,zaozerne,ua,68.84599999999995,67,0,3.83
243,179.54897933175488,85.93429794269485,leningradskiy,ru,45.32000000000005,77,100,0.84
244,-114.28625413832508,42.17448747694955,twin falls,us,75.99200000000002,13,1,3.1
245,26.087110883883536,-0.25628857191194454,kisangani,cd,70.10600000000005,98,62,1.26
246,20.3954948273638,19.11807515703495,faya,td,66.19999999999999,77,25,1.23
247,-114.90258548161871,23.24821901155093,constitucion,mx,51.40399999999994,84,1,5.92
248,-54.4999186256131,-37.301618459944876,maldonado,uy,54.66199999999998,54,0,4.1
249,-12.972032578478565,8.163923843682852,waterloo,sl,58.04599999999999,82,75,4.1
250,170.85772612216442,-14.14318039649225,sola,vu,77.64799999999997,79,66,7.47
251,-111.10614038708403,21.845997583971776,cabo san lucas,mx,86.19800000000004,74,5,5.7
252,147.26942114041572,3.081455250227161,lorengau,pg,84.39799999999997,77,64,4.14
253,-99.75107581461516,31.51239925932402,san angelo,us,52.48399999999987,93,90,2.6
254,-62.26722330366352,36.99912016413683,saint george,bm,80.618,14,1,1.96
255,-79.69860295823877,47.58587993034929,haileybury,ca,53.599999999999966,71,1,2.1
256,-128.55269680987186,47.78873506724201,port hardy,ca,73.39999999999992,56,20,2.1
257,-133.00563204078858,40.67333399690533,eureka,us,64.094,25,11,1.37
258,-39.907419789280226,10.010347455413838,carutapera,br,78.42199999999997,83,29,3.7
259,121.07621082690738,53.60158117537729,amazar,ru,57.36199999999991,77,73,1.11
260,-24.72080332339368,-16.54165479807983,maragogi,br,73.38199999999989,85,0,5.35
261,39.99370947208571,56.40649676137311,gavrilov posad,ru,48.361999999999966,88,1,6.46
262,-34.99052784494825,-46.70764079163245,cidreira,br,57.64999999999992,88,0,2.17
263,152.96238742952,55.81288462472159,sobolevo,ru,46.70600000000002,86,0,4.99
264,113.60796777667976,24.631633346401028,maba,cn,79.39400000000006,84,75,0.36
265,58.5924611196438,48.84261814070404,emba,kz,56.56999999999999,55,23,1.44
266,-37.94510841377674,-23.536594771878384,sao joao da barra,br,73.36399999999998,78,39,10.69
267,52.73370961575552,59.31572359020939,svetlopolyansk,ru,51.63799999999998,89,100,5.98
268,89.94878404252866,0.6614535824788548,meulaboh,id,76.24399999999997,74,90,1.85
269,66.43247384743331,26.775963423289863,bela,pk,81.48199999999991,63,63,0.25
270,113.15514850436472,64.83935511391924,udachnyy,ru,42.799999999999955,87,90,1
271,-51.86096277765946,56.49609717774297,paamiut,gl,39.14599999999996,72,0,6.76
272,56.53361687537923,46.05171560824809,beyneu,kz,58.51399999999995,75,0,3.67
273,-143.5137681231878,51.5341904748713,sitka,us,60.80000000000001,67,40,7.2
274,143.68805919948667,38.76544765414652,kamaishi,jp,71.59999999999997,94,75,2.1
275,73.50345286144197,11.879099325921583,kavaratti,in,81.28399999999993,81,100,9.22
276,-65.74815076734689,40.77573566107743,shelburne,ca,54.8239999999999,82,90,1
277,47.67532331987605,66.05215539001009,leshukonskoye,ru,49.298,96,100,3.65
278,31.36351602439824,63.64566080161246,muyezerskiy,ru,43.62800000000004,93,96,3.74
279,-52.712715933174636,67.20692449185454,sisimiut,gl,37.202,80,3,3.72
280,132.15162489790762,-18.794638920531625,katherine,au,78.80000000000001,61,27,2.1
281,166.92545917667755,-46.04059530826734,tuatapere,nz,49.99999999999994,63,54,0.45
282,-34.57052407024646,4.2561384171064365,trairi,br,77.86399999999998,79,27,6.21
283,-51.91985951305848,54.71171616206066,saint anthony,ca,58.24399999999997,54,20,0.97
284,-41.0934481575314,-18.323382806475507,ecoporanga,br,68.738,70,38,2.36
285,-168.66471881274745,62.94434617790537,lavrentiya,ru,48.16399999999999,68,99,4.14
286,144.60263991835578,-43.15656261256121,burnie,au,57.00200000000001,72,92,3.13
287,106.54363204784019,-5.312980144016477,teluknaga,id,77.46800000000002,83,20,1
288,-81.45774422579966,28.397418556169875,doctor phillips,us,81.24799999999999,83,75,3.6
289,109.94652524050032,39.65518473732784,dongsheng,cn,56.4260000000001,63,0,4.5
290,48.94990262432428,64.62008272358901,koslan,ru,50.84599999999995,94,100,4.69
291,17.987105008419736,42.33608961927931,dubrovnik,hr,80.59999999999997,42,0,3.1
292,-54.563548106246216,-49.78212009899992,necochea,ar,55.99399999999997,84,67,6.26
293,-21.809817534812037,-65.86254276943649,chuy,uy,51.25999999999999,65,0,2.57
294,-63.65266814786317,-37.127945360350566,santa rosa,ar,82.72399999999999,78,75,1.5
295,-18.542998583126003,19.26888585993022,nouadhibou,mr,87.80000000000001,58,20,7.2
296,177.18037837811792,-39.8786052362791,hastings,nz,52.46599999999995,91,2,1.82
297,0.44111126206496376,-35.61208724745737,luderitz,na,64.39999999999992,58,0,2.16
298,137.7198073381756,-34.14185167971847,port pirie,au,75.19999999999999,33,35,4.6
299,25.319995563460495,3.551408375386511,buta,cd,68.95400000000001,98,51,0.61
300,130.37809315389268,-2.6221257474215665,amahai,id,80.14999999999992,82,77,2.8
301,11.703837738459487,59.182515555813545,orje,no,45.66199999999998,85,99,2.77
302,-113.24573892955323,-2.175202850626734,lazaro cardenas,mx,83.40799999999996,80,99,2.89
303,-66.21724707673758,48.75886153774608,sainte-anne-des-monts,ca,47.803999999999974,88,100,4.87
304,147.8929859044963,28.11108315919949,katsuura,jp,83.17399999999992,83,40,5.1
305,-150.18342133115783,23.625283346494886,hilo,us,78.63799999999998,66,75,4.6
306,37.89489324614752,16.49142563156446,barentu,er,68.48600000000005,87,100,2.14
307,-64.19673002516366,30.171303978245355,hamilton,bm,80.04199999999997,58,90,4.6
308,-48.1092424275523,66.22062776554075,qasigiannguit,gl,33.799999999999955,69,21,1.68
309,151.70702247932894,-28.13345720688033,warwick,au,74.12000000000006,88,90,3.1
310,-39.73503569488586,-15.298063173439624,pau brasil,br,63.22999999999996,89,8,1.23
311,25.70147467495374,-13.357096770211196,kasempa,zm,53.29400000000004,41,8,2.5
312,-119.70631533419125,35.83207381501242,corcoran,us,80.59999999999997,44,1,1.5
313,126.67976340526866,62.39445406520198,berdigestyakh,ru,50.79199999999997,73,97,1.93
314,37.01652010618013,-34.13156036898012,richards bay,za,66.488,79,92,3.5
315,-72.36514965280045,-20.343799668037466,iquique,cl,60.80000000000001,67,75,3.6
316,133.13668463016427,48.85051327394719,birobidzhan,ru,57.84800000000001,64,0,3.26
317,99.41068334611616,-12.667079528086923,labuhan,id,78.40399999999994,74,48,4.55
318,128.47530051892176,82.86172389316832,tiksi,ru,46.95799999999997,66,97,2.74
319,18.163747584166057,57.505490745621024,visby,se,48.19999999999999,70,17,1
320,-72.82060463654652,-39.61310696559015,loncoche,cl,46.436000000000035,87,57,2.1
321,103.84956525604487,13.883940130781214,sisophon,kh,78.56599999999997,88,100,1.58
322,-5.497692640931007,46.51354408520424,quimper,fr,53.599999999999966,93,1,3.6
323,90.23529558947108,58.18513429557538,novobirilyussy,ru,37.99400000000003,96,25,1.31
324,121.05226165410173,-0.8575969880672996,poso,id,81.24799999999999,73,100,2.94
325,-81.9424649489934,42.393992494529186,ridgetown,ca,60.80000000000001,82,20,6.2
326,-104.03936681393846,48.079587882796794,sidney,us,62.636000000000024,63,40,4.1
327,48.87453041577785,-8.259137733224653,ambilobe,mg,66.54199999999997,75,54,1.42
328,-39.82510722680366,49.283476827390594,nanortalik,gl,39.19999999999999,71,0,11.62
329,54.61584588838584,27.343149624767747,lar,ir,80.58199999999994,85,85,2.63
330,147.0440184356564,58.71306331291542,arman,ru,54.410000000000025,51,38,4.12
331,58.101620082375696,56.78289014986794,ufimskiy,ru,46.6339999999999,96,33,2.3
332,-42.6636153159575,-20.545432063203993,ponte nova,br,68.5399999999999,54,30,1.53
333,-72.66712581375326,15.494534450012843,pedernales,do,84.19999999999999,79,75,4.1
334,-116.86088022562248,29.13924836897118,san quintin,mx,80.31199999999995,42,0,5.04
335,170.61115892502914,81.42958384108013,pevek,ru,42.349999999999966,93,100,2.84
336,125.91259423560427,29.360918455329077,nago,jp,82.18399999999991,83,1,3.1
337,46.24202374058133,-7.712356638805029,mitsamiouli,km,76.15399999999994,78,0,2.41
338,11.929844057246797,-4.643250487681039,loandjili,cg,73.90399999999994,84,100,3.96
339,-138.62921319558575,58.41111268804083,haines junction,ca,53.20400000000001,60,88,1.45
340,-2.6793300968539047,8.984193231047687,bouna,ci,69.58399999999989,98,76,1.58
341,21.295777550229843,-6.106299628277679,tshikapa,cd,75.92000000000002,56,33,0.66
342,-9.653524912703437,66.16380505736929,vestmanna,fo,49.99999999999994,100,98,4.1
343,135.97122883248176,3.059446377213604,biak,id,79.12399999999997,79,48,3.67
344,37.89335066133004,-37.81827644447488,margate,za,55.057999999999936,51,37,3
345,24.4779736832901,64.95935010161803,raahe,fi,48.19999999999999,81,0,4.1
346,-104.92892307676837,52.499676056283725,humboldt,ca,63.21199999999993,77,1,2.1
347,-4.570785685209344,46.4546692120393,concarneau,fr,52.71800000000002,93,2,3.6
348,176.5203583813737,-48.55708712222158,christchurch,nz,48.47000000000003,81,80,7.7
349,-97.93364668466059,23.186560495135623,nuevo progreso,mx,77.01799999999997,66,99,0.89
350,121.48952928567812,60.25323385418048,khani,ru,64.39999999999992,93,0,1
351,-77.7730952437531,-22.958414180760556,antofagasta,cl,57.19999999999999,76,75,3.1
352,173.00563177967055,64.87895753329705,komsomolskiy,ru,66.19999999999999,45,0,3.1
353,67.5843768849245,67.55272624489788,aksarka,ru,51.88999999999993,89,93,7.72
354,145.4007892073242,55.45568346052278,okha,ru,55.25600000000003,68,54,4.99
355,147.4710523907946,-31.448041790805703,dubbo,au,58.99999999999994,58,0,6.7
356,132.97009062092965,-25.07452672716083,alice springs,au,73.39999999999992,25,0,5.5
357,-81.91040439824006,-14.867751223944946,lima,pe,60.80000000000001,77,90,4.6
358,-71.9062665325438,31.545040090659782,havelock,us,80.56400000000002,93,36,2.95
359,-85.91351111643213,-18.947709019607494,pisco,pe,62.329999999999984,77,12,6.2
360,122.60462643610104,-0.03452915584848393,gorontalo,id,81.44599999999997,79,8,1.36
361,30.417686323515735,-15.706146317251013,luangwa,zm,61.87999999999994,49,1,1.54
362,30.286451655575043,-9.156549996779773,mporokoso,zm,60.80000000000001,41,0,3.98
363,101.59042944148939,35.8216336504176,xining,cn,52.87999999999994,78,100,0.82
364,88.4620901035779,28.500718743603105,mangan,in,75.416,58,100,0.4
365,115.12652109390247,52.441756859825496,verkh-usugli,ru,54.77000000000004,83,21,2.1
366,-3.8457839300557906,10.217285477477478,gaoua,bf,69.27800000000008,97,69,1.69
367,115.81762765663879,29.56698909422758,jiujiang,cn,73.81400000000002,83,79,2.24
368,86.70511960296106,38.83004185892543,korla,cn,66.63199999999989,28,74,5.05
369,-59.41588669328299,10.094962799945717,scarborough,tt,51.22399999999993,81,93,1.79
370,-15.572022704238142,55.936448499909716,westport,ie,73.34599999999995,98,100,2.53
371,-151.87677258563036,-3.9121362227777845,faanui,pf,78.38600000000002,73,18,5.37
372,28.657154881086488,15.833330466491303,bara,sd,72.22999999999996,94,38,2.9
373,-59.80853288376349,12.47712936980051,oistins,bb,80.59999999999997,78,20,1.5
374,96.00174229911642,10.064372010778822,ranong,th,79.33999999999997,84,99,2.02
375,70.2136146961762,-57.52192377911782,saint-philippe,re,61.970000000000084,82,90,2.1
376,-83.37755269310479,-11.373023564785612,chimbote,pe,60.00799999999998,86,19,2.76
377,112.07504748314199,34.10738135766572,yima,cn,73.00399999999996,99,29,3.84
378,116.01422811139852,69.22046035431791,saskylakh,ru,48.86599999999993,75,97,1.56
379,-34.15193590511421,-8.522549174681382,olinda,br,78.80000000000001,74,75,6.7
380,26.818385356330076,64.91532011963041,muhos,fi,48.19999999999999,81,7,4.1
381,66.99128374697565,65.7485800451992,salekhard,ru,51.548,89,90,6.92
382,-68.19303861182749,-17.262304802457194,patacamaya,bo,46.52600000000007,55,1,4.09
383,127.16276000830821,17.520932102506748,pandan,ph,84.52399999999994,73,88,2.52
384,-12.608555038967406,19.614803423758108,atar,mr,96.22399999999999,21,63,1.6
385,175.30610054622994,-14.008391529193332,asau,tv,60.67399999999992,77,0,1.5
386,144.06700647877673,-21.87569470166806,charters towers,au,72.84199999999993,43,0,3.94
387,86.44796764586904,34.22997660550057,pokhara,np,72.10399999999998,83,97,0.94
388,29.654841657073995,24.693092837953724,sohag,eg,78.80000000000001,34,0,2.1
389,-91.61304317168825,33.80855136368949,monticello,us,58.622000000000014,54,1,2.55
390,-45.0582394497556,12.020599863064795,cayenne,gf,80.59999999999997,78,3,3.1
391,3.0750842883310314,18.022185538262526,kidal,ml,95.14400000000006,28,62,3.17
392,163.71710793808677,-9.586552450056573,kirakira,sb,83.714,64,67,3.28
393,127.2709624484676,16.022910181387672,payo,ph,75.488,83,100,0.57
394,65.61851226766089,70.62689034946295,severnyy,ru,60.80000000000001,77,0,4
395,-67.79450271850163,-32.0860991608881,san juan,ar,71.618,28,0,4.07
396,12.185340529062083,66.68762824441995,sandnessjoen,no,46.18399999999991,87,96,1.5
397,-70.66601571732896,-8.271214757120916,tarauaca,br,82.00399999999996,51,82,0.78
398,119.37642370508696,15.221392060824012,palauig,ph,84.23600000000005,71,89,0.68
399,-8.24407185161926,58.9730679063034,stornoway,gb,55.238,93,100,11.3
400,45.1730261111271,23.346751868590577,riyadh,sa,85.99999999999994,22,46,1.5
401,98.39419367574351,44.88334174793497,hovd,mn,40.981999999999914,69,15,0.62
402,103.58107709087363,31.91448360901169,tianpeng,cn,78.00799999999998,9,99,0.7
403,158.11725624383587,55.99528417970369,esso,ru,48.41599999999994,65,90,2.35
404,-2.6515438748552445,55.463523631681866,denholm,gb,78.80000000000001,36,40,5.7
405,17.504663579428126,51.564787663431986,krotoszyn,pl,55.99399999999997,77,7,1.38
406,91.5408752761534,60.872245644980694,teya,ru,40.47800000000001,89,1,0.46
407,-121.3254688157071,39.87041705750883,magalia,us,80.58199999999994,21,90,3.44
408,22.273885120733294,7.860839267322051,ouadda,cf,66.97399999999999,96,98,1.21
409,-56.60424343851882,-36.23017649969115,dolores,ar,48.90199999999999,64,1,3.9
410,70.25537573439122,47.89962890252043,atasu,kz,47.38999999999993,52,0,5.05
411,-82.89292181892164,25.373397698469745,naples,us,73.868,88,38,2.1
412,127.49934503650044,23.367683805381734,hirara,jp,82.39999999999992,88,75,2.6
413,113.08085575772087,-10.451491939343505,ambulu,id,76.28000000000003,76,66,0.88
414,147.8510439162003,-17.9483382967079,townsville,au,75.56,60,4,3.6
415,-45.77275545731665,-1.795247815012302,maracacume,br,76.262,82,8,2.26
416,30.99053125035114,-9.200634929861506,mpulungu,zm,73.47200000000004,41,31,4.39
417,-44.031706924552694,-1.9332100063281232,alcantara,br,80.59999999999997,83,12,5.1
418,46.2796235221717,20.72755298104886,najran,sa,78.80000000000001,27,0,1.03
419,-69.35649138351665,-22.73792122225785,calama,cl,64.39999999999992,8,52,6.2
420,84.28608621452807,8.27998304496239,kalmunai,lk,78.90799999999996,73,100,1.51
421,7.41920514671246,-16.273201561596906,namibe,ao,67.06400000000002,88,77,0.85
422,-28.068228761327063,-19.24694089024206,caravelas,br,70.52000000000004,83,32,2.33
423,44.2979042730397,-24.936326828584264,ampanihy,mg,71.87000000000006,57,100,1.9
424,38.36834689679998,44.678790926528855,kholmskaya,ru,55.99399999999997,82,0,0.12
425,62.197242363845696,29.290913175945732,rudbar,af,70.39400000000006,26,0,5.83
426,5.0486848872858925,54.02298785515639,harlingen,nl,74.44400000000002,78,90,7.2
427,143.92518743486494,-2.518727382924424,wewak,pg,82.38199999999989,75,80,2.9
428,-7.952663471572574,56.117569296574956,buncrana,ie,52.807999999999936,87,100,4.73
429,116.91130354410235,35.73646157960834,ningyang,cn,71.00600000000003,1,0,0.45
430,-43.03121179380427,-30.949094284998722,imbituba,br,69.80000000000001,64,90,5.1
431,133.98738021620898,21.321013440209548,nishihara,jp,82.92199999999997,79,40,2.6
432,109.43884191881897,-4.9019093231259525,indramayu,id,79.62799999999999,68,81,4.26
433,176.62614159358415,-37.096729917862824,maketu,nz,55.99399999999997,59,73,0.89
434,153.15819953689004,-34.31155836249113,nelson bay,au,63.19400000000002,77,75,1.5
435,-79.13679534782435,24.094870646861676,andros town,bs,82.39999999999992,83,75,3.1
436,-0.7826713199679869,63.59394912846518,brae,gb,53.599999999999966,87,100,8.2
437,1.7434625052248354,11.791400191666723,diapaga,bf,75.00200000000001,90,28,1.45
438,50.54946335681969,55.66206455460584,bogatyye saby,ru,56.60600000000005,68,98,9.28
439,138.236486636456,-12.093623618079407,nhulunbuy,au,80.59999999999997,61,47,4.6
440,-59.57008339950151,7.778821271666569,mabaruma,gy,77.27000000000004,92,76,1.63
441,177.86805938914486,64.37176459792312,anadyr,ru,49.99999999999994,87,90,7
442,-28.547728975755483,61.2407754880253,olafsvik,is,47.786,86,100,7.38
443,-89.85308223437207,-13.67032551473949,chicama,pe,60.96199999999993,83,19,2.43
444,147.2011164492354,-6.685373961589203,lae,pg,77.108,83,98,0.85
445,-9.679417897678611,43.02585368130122,muros,es,69.00799999999998,71,20,0.45
446,-51.63239607273597,63.81928555583717,nuuk,gl,39.091999999999985,75,0,4.1
447,0.7355845941812822,53.981212259075825,cleethorpes,gb,53.22200000000004,76,92,2.6
448,5.437707985329254,14.554936071476721,illela,ne,83.26399999999995,65,43,4.41
449,32.44389847982123,-1.343022977934838,bukoba,tz,68.19800000000004,71,84,1.95
450,82.83363024261192,5.653701764808783,wattegama,lk,76.45999999999998,74,100,3.54
451,-63.22757008135367,-31.25693517293062,cordoba,ar,71.29400000000004,49,18,3.6
452,147.43878582277387,-13.99652063648914,cairns,au,75.19999999999999,60,3,4.1
453,71.34082874816936,53.89986067871192,poltavka,ru,49.099999999999966,57,47,2.4
454,-34.613936154272594,2.943306994222361,jardim,br,82.81400000000002,29,76,1.25
455,-94.80173024620254,15.865694928551532,san mateo del mar,mx,84.12799999999999,76,63,4.07
456,58.49880341407074,37.94526270654154,annau,tm,66.19999999999999,32,0,1
457,137.3288331563978,46.5700127187379,svetlaya,ru,58.02800000000008,80,93,5.35
458,-100.4433605891835,20.246464069032953,jerecuaro,mx,67.964,93,90,1.5
